{
  "posts": [
    {
      "id": 1,
      "title": "json-server",
      "author": "typicode"
    }
  ],
  "comments": [
    {
      "id": 1,
      "body": "some comment",
      "postId": 1
    }
  ],
  "profile": {
    "name": "typicode"
  },
  "breweries": [
    {
      "id": "antiques-on-high-columbus",
      "name": "Antiques on High",
      "brewery_type": "micro",
      "street": "714 S High St",
      "address_2": null,
      "address_3": null,
      "city": "Columbus",
      "state": "Ohio",
      "county_province": null,
      "postal_code": "43206",
      "country": "United States",
      "longitude": "-82.99774",
      "latitude": "39.9476",
      "phone": "614-725-2070",
      "website_url": "https://www.antiquesonhigh.com/",
      "updated_at": "2021-10-23T02:24:55.243Z",
      "created_at": "2021-10-23T02:24:55.243Z"
    },
    {
      "id": "buckeye-beer-engine-lakewood",
      "name": "Buckeye Beer Engine",
      "brewery_type": "brewpub",
      "street": "15315 Madison Ave",
      "address_2": null,
      "address_3": null,
      "city": "Lakewood",
      "state": "Ohio",
      "county_province": null,
      "postal_code": "44107-4020",
      "country": "United States",
      "longitude": "-81.803918",
      "latitude": "41.477245",
      "phone": "2162262337",
      "website_url": "http://www.buckeyebeerengine.com",
      "updated_at": "2021-10-23T02:24:55.243Z",
      "created_at": "2021-10-23T02:24:55.243Z"
    },
    {
      "id": "birdfish-brewing-co-columbiana",
      "name": "BirdFish Brewing Co",
      "brewery_type": "micro",
      "street": "16 S Main St",
      "address_2": null,
      "address_3": null,
      "city": "Columbiana",
      "state": "Ohio",
      "county_province": null,
      "postal_code": "44408-1348",
      "country": "United States",
      "longitude": "-80.69353036",
      "latitude": "40.888487",
      "phone": "3303339385",
      "website_url": "http://www.birdfishbrew.com",
      "updated_at": "2021-10-23T02:24:55.243Z",
      "created_at": "2021-10-23T02:24:55.243Z"
    }
  ]
}